[
  {
    "name": "ال جي المهندسين",
    "address": "367 شارع السودان - المهندسين - الجيزة",
    "district": "المهندسين",
    "governorate": "الجيزة",
    "phone": "0233047888 / 01287344244",
    "maps_url": "https://www.google.com/maps/place/L.G/@30.0710875,31.1999176,83m/data=!3m1!1e3!4m12!1m5!3m4!2s8G2H35CX%2BCWM!8m2!3d30.0710875!4d31.1997969!3m5!1s0x145841e53c55fc3f:0xe9c4d46ee30ab1bf!8m2!3d30.0711558!4d31.2000771!16s%2Fg%2F11nt5p2xzq?entry=ttu&g_ep=EgoyMDI1MDkwOC4wIKXMDSoASAFQAw%3D%3D",
    "lat": 30.071154814643407, 
    "lng": 31.200097308005912
  },
  {
    "name": "ال جي الدقي",
    "address": "10 شارع نوال - الدقي - الجيزة",
    "district": "الدقي",
    "governorate": "الجيزة",
    "phone": "02-37618168 / 01143333334",
    "maps_url": "https://www.google.com/maps/place/LG+Dokki/@30.0460094,31.2138393,83m/data=!3m1!1e3!4m12!1m5!3m4!2s8G2H26W7%2B9G5!8m2!3d30.0458875!4d31.2138594!3m5!1s0x145841290a91d7cb:0x86dd9a87886c98cb!8m2!3d30.0458983!4d31.2138891!16s%2Fg%2F11h43c_nn7?entry=ttu&g_ep=EgoyMDI1MDkwOC4wIKXMDSoASAFQAw%3D%3D",
    "lat": 30.045925815761496, 
    "lng":31.213896967494435
  },
  {
    "name": "ال جي سيتي ستارز",
    "address": "مدينة نصر – سيتي ستارز – الدور الأول بجوار سعودي ماركت",
    "district": "مدينة نصر",
    "governorate": "القاهرة",
    "phone": "01125880907 / 01201104341",
    "maps_url": "https://www.google.com/maps/place/%D8%A7%D9%84+%D8%AC%D9%8A+%D8%B3%D9%8A%D8%AA%D9%8A+%D8%B3%D8%AA%D8%A7%D8%B1%D8%B2%E2%80%AD/@30.0741472,31.3470882,83m/data=!3m1!1e3!4m12!1m5!3m4!2s8G2H38FW%2BJR8!8m2!3d30.0740375!4d31.3470781!3m5!1s0x14583e0d6a5d8b55:0xc253a50c76f91559!8m2!3d30.0740375!4d31.3470781!16s%2Fg%2F11c5zmk246?entry=ttu&g_ep=EgoyMDI1MDkwOC4wIKXMDSoASAFQAw%3D%3D",
    "lat": 30.074056676137598, 
    "lng": 31.34709222331357
  },
  {
    "name": "ال جي المعادي 1",
    "address": "برج الحرية - تقاطع شارع 100 مع شارع 153 - المعادي - القاهرة",
    "district": "المعادي",
    "governorate": "القاهرة",
    "phone": "1001514555",
    "maps_url": "https://www.google.com/maps/place/LG+Maadi/@29.9599875,31.2551406,1327m/data=!3m1!1e3!4m12!1m5!3m4!2s7GXHX754%2BX3R!8m2!3d29.9599875!4d31.2551406!3m5!1s0x145847f1661b9fef:0xf629a7592b8ae8c0!8m2!3d29.9599645!4d31.2551352!16s%2Fg%2F11c56cffwt?entry=ttu&g_ep=EgoyMDI1MDkwOC4wIKXMDSoASAFQAw%3D%3D",
    "lat": 29.9599875,
    "lng": 31.2551406
  },
  {
    "name": "ال جي الجديدة مصر",
    "address": "ميدان تيرينف - 95 شارع عفان بن عثمان - الجديدة مصر - القاهرة",
    "district": "الجديدة مصر",
    "governorate": "القاهرة",
    "phone": "222916534",
    "maps_url": "https://goo.gl/maps/TponsEtxMpZpg13w7",
    "lat": 29.96032212621822,
    "lng": 31.255204973017047
  },
  {
    "name": "ال جي المعادي 2",
    "address": "بجوار بكس ستر - شارع النصر - المعادي - القاهرة",
    "district": "المعادي",
    "governorate": "القاهرة",
    "phone": "0227545804 / 01552762074",
    "maps_url": "https://www.google.com/maps/place/LG/@29.9755875,31.2832344,759m/data=!3m1!1e3!4m12!1m5!3m4!2s7GXHX7GM%2B67Q!8m2!3d29.9755875!4d31.2832344!3m5!1s0x145839becddcf995:0xa6c776357be8e6c!8m2!3d29.9755616!4d31.2831728!16s%2Fg%2F11v9d2sw86!5m1!1e2?entry=ttu&g_ep=EgoyMDI1MDkwOC4wIKXMDSoASAFQAw%3D%3D",
    "lat": 29.975773374410494, 
    "lng": 31.28311638280209
  },
  {
    "name": "ال جي العبور",
    "address": "داخل مول سيتي سنتر العبور - جولف - امام كارفور",
    "district": "العبور",
    "governorate": "القاهرة",
    "phone": "01203999195 / 01127181855",
    "maps_url": "https://www.google.com/maps/place/LG/@30.1738875,31.4758594,757m/data=!3m1!1e3!4m12!1m5!3m4!2s8G2H5FFG%2BH85!8m2!3d30.1738875!4d31.4758594!3m5!1s0x14581b9c1ac511b1:0x7c44a9aa610d6dd6!8m2!3d30.1738869!4d31.475847!16s%2Fg%2F11t7vjr08d!5m1!1e2?entry=ttu&g_ep=EgoyMDI1MDkwOC4wIKXMDSoASAFQAw%3D%3D",
    "lat": 30.17394182805636, 
    "lng":31.475847751276085
  },
  {
    "name": "ال جي القطامية",
    "address": "منطقة المعارض - قطعة 2 - طريق الدائري - التجمع الخامس - القاهرة الجديدة",
    "district": "القاهرة الجديدة",
    "governorate": "القاهرة",
    "phone": "1100100999",
    "maps_url": "https://www.google.com/maps/place/LG+Katameya/@29.9934268,31.3862618,231m/data=!3m1!1e3!4m12!1m5!3m4!2s7GXHX9VP%2BCCC!8m2!3d29.9935625!4d31.3860156!3m5!1s0x14583be2c1643505:0x888db4970cd72cb!8m2!3d29.993333!4d31.3860142!16s%2Fg%2F11h_3x_trt!5m1!1e2?entry=ttu&g_ep=EgoyMDI1MDkwOC4wIKXMDSoASAFQAw%3D%3D",
    "lat": 29.993390878964313, 
    "lng": 31.38599246969539
  },
  {
    "name": "ال جي مصر مول",
    "address": "داخل مصر مول - الدور الثاني - بوابة C2 - اكتوبر",
    "district": "6 اكتوبر",
    "governorate": "الجيزة",
    "phone": "01028405033 / 01221614670",
    "maps_url": "https://goo.gl/maps/BVJTTLVaCR9ZUxmX8",
    "lat": 29.972422810134837,
    "lng":  31.015637796600874
  },
  {
    "name": "ال جى كايرو فيستيفال سيتى مول ",
    "address": "داخل مول سيتي فيستيفال - الدور الثاني - امام كارفور - بجوار صيدلية العزبي - القاهرة الجديدة",
    "district": "القاهرة الجديدة",
    "governorate": "القاهرة",
    "phone": "1021070000",
    "maps_url": "https://goo.gl/maps/s6ozERF2qx1uSE5Y9",
    "lat": 30.028072150244466,
    "lng":  31.40745266980462
  },
  {
    "name": "ال جي مدينة نصر",
    "address": "9 شارع سمير عبد الرؤوف - امتداد عبيد مكرم - مدينة نصر - القاهرة",
    "district": "مدينة نصر",
    "governorate": "القاهرة",
    "phone": "0222743426 / 01112006783 / 01021011011",
    "maps_url": "https://www.google.com/maps/place/LG/@30.0531375,31.3461406,758m/data=!3m1!1e3!4m12!1m5!3m4!2s8G2H383W%2B7F2!8m2!3d30.0531375!4d31.3461406!3m5!1s0x14583e5d94c66301:0xd34c279ff9ad5820!8m2!3d30.0531792!4d31.3461634!16s%2Fg%2F11b5phpg01!5m1!1e1?entry=ttu&g_ep=EgoyMDI1MDkwOC4wIKXMDSoASAFQAw%3D%3D",
    "lat": 30.053416093567503, 
    "lng": 31.346183515344688
  },
  {
    "name": "ال جي مول العرب",
    "address": "داخل العرب مول - بوابة 23 و 24 - بجوار السينما وامام مطعم لابوار - اكتوبر",
    "district": "6 اكتوبر",
    "governorate": "الجيزة",
    "phone": "1021050000",
    "maps_url": "https://www.google.com/maps/place/LG+Mall+Of+Arabia/@30.0055625,30.9712656,758m/data=!3m1!1e3!4m12!1m5!3m4!2s8G2G2X4C%2B6GC!8m2!3d30.0055625!4d30.9712656!3m5!1s0x145857e463e612c9:0xcc97cfb8f9fc345b!8m2!3d30.0055369!4d30.9713664!16s%2Fg%2F11pkhnz844!5m1!1e1?entry=ttu&g_ep=EgoyMDI1MDkwOC4wIKXMDSoASAFQAw%3D%3D",
    "lat": 30.00570186375549, 
    "lng": 30.971383617197908
  },
  {
    "name": "ال جي حلوان",
    "address": "30 شارع مصطفى فهمي - بجوار بنك التعمير والاسكان - حلوان",
    "district": "حلوان",
    "governorate": "الجيزة",
    "phone": "1270709393",
    "maps_url": "https://www.google.com/maps/place/LG/@29.8509736,31.3327533,47m/data=!3m1!1e3!4m12!1m5!3m4!2s7GXHV82M%2B947!8m2!3d29.8509125!4d31.3327969!3m5!1s0x1458376f562ea08d:0xc5a7867e47eabc00!8m2!3d29.8508087!4d31.3328049!16s%2Fg%2F11rtm6gcrz!5m1!1e1?entry=ttu&g_ep=EgoyMDI1MDkwOC4wIKXMDSoASAFQAw%3D%3D",
    "lat": 29.850815956718243, 
    "lng": 31.332802264419115
  },
  {
    "name": "ال جي مكرم",
    "address": "شارع عبيد مكرم - امام مبنى المساعدات الاجنبية - مول سيتي سنتر مكرم - مدينة نصر",
    "district": "مدينة نصر",
    "governorate": "القاهرة",
    "phone": "1270709911",
    "maps_url": "https://www.google.com/maps/place/LG+-+%D8%A5%D9%84+%D8%AC%D9%8A+-+%D9%81%D8%B1%D8%B9+%D9%85%D9%83%D8%B1%D9%85+%D8%B9%D8%A8%D9%8A%D8%AF+%D9%85%D8%AF%D9%8A%D9%86%D8%A9+%D9%86%D8%B5%D8%B1%E2%80%AD/@30.0685949,31.3438727,47m/data=!3m1!1e3!4m12!1m5!3m4!2zMzDCsDA0JzA3LjAiTiAzMcKwMjAnMzcuOCJF!8m2!3d30.0686111!4d31.3438333!3m5!1s0x14583f53a898a039:0x6ab06aa8845b8c76!8m2!3d30.0684643!4d31.343801!16s%2Fg%2F11t4ccbz63!5m1!1e1?entry=ttu&g_ep=EgoyMDI1MDkwOC4wIKXMDSoASAFQAw%3D%3D",
    "lat": 30.0684794175533, 
    "lng":31.343799609803565
  },
  {
    "name": "ال جي مسكن الف",
    "address": "15 شارع جسر السويس - ميدان مسكن الف - القاهرة",
    "district": "مسكن الف",
    "governorate": "القاهرة",
    "phone": "1033937323",
    "maps_url": "https://goo.gl/maps/wXH3p5fjCXscY5sq8",
    "lat": 30.117446200401826, 
    "lng": 31.337315164788542
  },
  {
    "name": "ال جي سيتي سنتر ألماظة",
    "address": "داخل سيتي سنتر ألماظة - الدور الثاني - امام ملاهي جرافيتي",
    "district": "سيتي سنتر ألماظة",
    "governorate": "القاهرة",
    "phone": "1021090000",
    "maps_url": "https://www.google.com/maps/place/LG/@30.0765705,31.3600703,7390m/data=!3m1!1e3!4m6!3m5!1s0x14583da60e3df333:0x9999f26f1d8c40ea!8m2!3d30.0817026!4d31.3652534!16s%2Fg%2F11tnnqvdhd!5m1!1e1?entry=ttu&g_ep=EgoyMDI1MDkwOC4wIKXMDSoASAFQAw%3D%3D",
    "lat": 30.083632418425452, 
    "lng": 31.366034132898594
  },
  {
    "name": "ال جي شمس عين",
    "address": "77 شارع عصمت أحمد - بجوار شمس عين - القاهرة",
    "district": "شمس عين",
    "governorate": "القاهرة",
    "phone": "1273720001",
    "maps_url": "https://goo.gl/maps/oSGJmTjEFrZywNk98",
    "lat":30.12674525255982, 
    "lng": 31.329035398146782
  },
  {
    "name": "ال جي مدينتي",
    "address": "داخل مول اير اوبر - امام كارفور - مدينتي - القاهرة",
    "district": "مدينتي",
    "governorate": "القاهرة",
    "phone": "1221130340",
    "maps_url": "https://goo.gl/maps/S5Qj2vXezcT4xBzVA",
    "lat": 30.10711874136146, 
    "lng":31.629093028168263
  },
  {
    "name": "ال جي الرحاب",
    "address": "داخل مول كورنر - محور السادات - محل رقم EG03 - التجمع الاول - امام بوابة 6 - الرحاب - القاهرة الجديدة",
    "district": "التجمع الاول - القاهرة الجديدة",
    "governorate": "القاهرة",
    "phone": "1200340952",
    "maps_url": "https://maps.app.goo.gl/MfmsGjNFd5pqKDMHA",
    "lat": 30.053053681042428,
    "lng":  31.489515546627125
  },
  {
    "name": "ال جي ديستريكت 5",
    "address": "داخل مول ديستريكت 5 - بجوار سعودي ماركت - طريق العين السخنة - القاهرة الجديدة",
    "district": "القاهرة الجديدة",
    "governorate": "القاهرة",
    "phone": "1050100083",
    "maps_url": "https://maps.app.goo.gl/V11ZSoPts87a27dM6",
    "lat": 29.95596700262543,
    "lng":  31.45290615767235
  },
  {
    "name": "ال جي مدينتي 2",
    "address": "داخل مول سترب مدينتي - بجوار بنك CIB",
    "district": "مدينتي",
    "governorate": "القاهرة",
    "phone": "1270785749",
    "maps_url": "https://maps.app.goo.gl/iroQMVbanDGzu2A87",
    "lat": 30.072432314287056,
    "lng":  31.648688998114075
  },
  {
    "name": "ال جي سيتي سنتر الاسكندرية",
    "address": "داخل مول سيتي سنتر الاسكندرية - امام كارفور - محرم بيك",
    "district": "محرم بيك",
    "governorate": "الاسكندرية",
    "phone": "1050100086",
    "maps_url": "https://goo.gl/maps/smJrqvJUnXQX5p6n6",
    "lat": 31.16757693372519, 
    "lng": 29.932406045811454
  },
  {
    "name": "ال جي شاهين",
    "address": "55 شارع بور سعيد - كامب شيزار - الاسكندرية",
    "district": "كامب شيزار",
    "governorate": "الاسكندرية",
    "phone": "035917614 / 01221163393",
    "maps_url": "https://www.google.com/maps/place/LG+shaheen/@31.2132872,29.9213166,47m/data=!3m1!1e3!4m12!1m5!3m4!2s8G3F6W7C%2B8FQ!8m2!3d31.2133375!4d29.9212344!3m5!1s0x14f5c47b9b20be2d:0xe06aeccf7aab5481!8m2!3d31.2133107!4d29.9211334!16s%2Fg%2F11b7l3tjc8!5m1!1e1?hl=en&entry=ttu&g_ep=EgoyMDI1MDkwOC4wIKXMDSoASAFQAw%3D%3D",
    "lat": 31.213322756116035, 
    "lng": 29.92113420978505
  },
  {
    "name": "ال جي سموحة",
    "address": "38 شارع توت عنخ امون - امام كنيسة السيدة العذراء مريم - بجوار بيت الشهيرة يوسف الصديق - النعمة - سموحة",
    "district": "سموحة",
    "governorate": "الاسكندرية",
    "phone": "034291741 / 01065747825",
    "maps_url": "https://www.google.com/maps/place/LG/@31.2144141,29.9385554,77m/data=!3m1!1e3!4m12!1m5!3m4!2s8G3F6W7Q%2BP9P!8m2!3d31.2143375!4d29.9384531!3m5!1s0x14f5c529ff646dcb:0xf9ebcf30ac923a4b!8m2!3d31.2144916!4d29.9385112!16s%2Fg%2F11txt4c5fb!5m1!1e1?hl=en&entry=ttu&g_ep=EgoyMDI1MDkwOC4wIKXMDSoASAFQAw%3D%3D",
    "lat": 31.214511591382383,
    "lng":  29.93851516686435
  },
  {
    "name": "ال جي العجمي (وازن)",
    "address": "طريق الاسكندرية - مطروح - ابو العجمي يوسف - امام مشويات ابو الحجاج - بجوار مسجد الصابرين",
    "district": "العجمي",
    "governorate": "الاسكندرية",
    "phone": "1277775455",
    "maps_url": "https://www.google.com/maps/place/LG/@31.0885375,29.7527969,750m/data=!3m1!1e3!4m12!1m5!3m4!2s8G3F3QQ3%2BC47!8m2!3d31.0885375!4d29.7527969!3m5!1s0x14f595126f04976b:0xdfc41b18d426f9a6!8m2!3d31.088543!4d29.7528393!16s%2Fg%2F11jt58mfb3!5m1!1e1?hl=en&entry=ttu&g_ep=EgoyMDI1MDkwOC4wIKXMDSoASAFQAw%3D%3D",
    "lat":31.088693693449056, 
    "lng": 29.752839815344696
  },
  {
    "name": "ال جي دسوق",
    "address": "شارع سمير نصر - شارع الجيش - دسوق",
    "district": "دسوق",
    "governorate": "كفر الشيخ",
    "phone": "0472550744 / 0472551292",
    "maps_url": "https://www.google.com/maps/place/LG/@31.1219375,30.6480297,94m/data=!3m1!1e3!4m12!1m5!3m4!2s8G3G4JCX%2BQ7F!8m2!3d31.1219375!4d30.6481719!3m5!1s0x14f65b9d4da728e9:0x2036dfe318bd3c73!8m2!3d31.1219711!4d30.6482149!16s%2Fg%2F11s9ytgd__!5m1!1e1?entry=ttu&g_ep=EgoyMDI1MDkwOC4wIKXMDSoASAFQAw%3D%3D",
    "lat": 31.12199490389806,
    "lng":  30.648212090214948
  },
  {
    "name": "ال جي ابو المطامير",
    "address": "ابو المطامير - بجوار قسم شرطة ابو المطامير",
    "district": "ابو المطامير",
    "governorate": "البحيرة",
    "phone": "1222257314",
    "maps_url": "https://goo.gl/maps/7M8iTxFVZLD2j1yC7",
    "lat": 30.91307228007949, 
    "lng": 30.17738854542252
  },
  {
    "name": "ال جي كفر الدوار",
    "address": "المدخل الرئيسي لكفر الدوار - الدوار - ابراج نصار - بجانب فتح الله",
    "district": "كفر الدوار",
    "governorate": "البحيرة",
    "phone": "1010908756",
    "maps_url": "https://www.google.com/maps/place/LG+%D9%85%D8%B9%D8%B1%D8%B6+%D9%86%D8%B5%D8%A7%D8%B1+%D9%84%D9%84%D8%A3%D8%AC%D9%87%D8%B2%D8%A9+%D8%A7%D9%84%D9%83%D9%87%D8%B1%D8%A8%D9%8A%D8%A9%E2%80%AD/@31.1282875,30.1230491,187m/data=!3m1!1e3!4m12!1m5!3m4!2s8G3G44HF%2B888!8m2!3d31.1282875!4d30.1233281!3m5!1s0x14f5df1a1d1df849:0xaa4b19753058e56e!8m2!3d31.1282432!4d30.1231005!16s%2Fg%2F11b5q_hxgp!5m1!1e1?entry=ttu&g_ep=EgoyMDI1MDkwOC4wIKXMDSoASAFQAw%3D%3D",
    "lat": 31.12828520399702,
    "lng":  30.123100061971822
  },

  {
    "name": "ال جي شبين الكوم",
    "address": "شبين الكوم - بجانب الصندوق الاجتماعي - شارع الكليات",
    "district": "شبين الكوم",
    "governorate": "المنوفية",
    "phone": "0482198368 / 0482198369",
    "maps_url": "https://goo.gl/maps/BtqhzMi957L5BATF9",
    "lat": 30.97992798476082, 
    "lng": 31.17548570732177
  },
  {
    "name": "ال جي المحلة الكبرى",
    "address": "ميدان المشحمة - بجوار كميدار للسياحة - المحلة الكبرى",
    "district": "المحلة الكبرى",
    "governorate": "الغربية",
    "phone": "0402383003 / 01024118091 / 01099441102",
    "maps_url": "https://www.google.com/maps/place/LG/@30.5802125,31.5171094,754m/data=!3m1!1e3!4m12!1m5!3m4!2s8G2HHGJ8%2B3RQ!8m2!3d30.5802125!4d31.5171094!3m5!1s0x14f7f19689e56fcf:0x8205d08b44d9d50a!8m2!3d30.5802094!4d31.517112!16s%2Fg%2F11h94l4mmt!5m1!1e1?entry=ttu&g_ep=EgoyMDI1MDkwOC4wIKXMDSoASAFQAw%3D%3D",
    "lat": 30.580397232734185,
    "lng":  31.51708794232765
  },
  {
    "name": "ال جي الزقازيق",
    "address": "شارع التجنيد - ابراج الامل - بجوار مسجد المدينة المنورة - الزقازيق",
    "district": "الزقازيق",
    "governorate": "الشرقية",
    "phone": "0552266646 / 01004141592 / 01211766811",
    "maps_url": "https://goo.gl/maps/uWAx27ERs7eHz8BT7",
    "lat": 30.79354959633607,
    "lng":  31.003735601510172
  },
  {
    "name": "ال جي طنطا",
    "address": "شارع بطرس - بجانب مستشفى المغربي - طنطا",
    "district": "طنطا",
    "governorate": "الغربية",
    "phone": "0403299648 / 01288813410",
    "maps_url": "https://www.google.com/maps/place/LG+Store+-+Awad+Serag/@31.0350946,31.3587402,47m/data=!3m1!1e3!4m12!1m5!3m4!2s8G3H29P5%2B2F!8m2!3d31.0350625!4d31.3586875!3m5!1s0x14f79d91c6c694c9:0x13d2812e00f2d685!8m2!3d31.0349777!4d31.3586021!16s%2Fg%2F11l5dpkvmk!5m1!1e1?hl=en&entry=ttu&g_ep=EgoyMDI1MDkwOC4wIKXMDSoASAFQAw%3D%3D",
    "lat": 31.034986029401278,
    "lng":  31.358629559787058
  },
  {
    "name": "ال جي المنصورة",
    "address": "حي الجامعة - امام مستشفى الغزالي - المنصورة",
    "district": "المنصورة",
    "governorate": "الدقهلية",
    "phone": "502351909",
    "maps_url": "https://www.google.com/maps/place/LG/@31.4132368,31.7957213,47m/data=!3m1!1e3!4m12!1m5!3m4!2s8G3HCQ7W%2B878!8m2!3d31.4132875!4d31.7957031!3m5!1s0x14f9e56a6adef257:0x232e4e4696c87062!8m2!3d31.4133196!4d31.7956851!16s%2Fg%2F11tg0q9gc2!5m1!1e1?entry=ttu&g_ep=EgoyMDI1MDkwOC4wIKXMDSoASAFQAw%3D%3D",
    "lat": 31.413336404972767,
    "lng":  31.79568442502425
  },
  {
    "name": "ال جي دمياط",
    "address": "شارع الكورنيش - بجوار نقابة المهندسين - امام بنك مصر - دمياط",
    "district": "دمياط",
    "governorate": "دمياط",
    "phone": "0572232250 / 01005048468 / 01226266162",
    "maps_url": "https://www.google.com/maps/place/LG/@31.2457625,32.3184219,749m/data=!3m1!1e3!4m12!1m5!3m4!2s8G3J68W9%2B893!8m2!3d31.2457625!4d32.3184219!3m5!1s0x14f99d88ae8c0eb9:0xbf4a7fc2712a43b7!8m2!3d31.2457638!4d32.3184172!16s%2Fg%2F11sx0167l4!5m1!1e1?entry=ttu&g_ep=EgoyMDI1MDkwOC4wIKXMDSoASAFQAw%3D%3D",
    "lat": 31.24591843442388, 
    "lng": 32.31836825581913
  },
  {
    "name": "ال جي بورفؤاد",
    "address": "15 شارع برج الجلاء - امام قصر الاميرة - حي بورفؤاد",
    "district": "بورفؤاد",
    "governorate": "بورسعيد",
    "phone": "0663425543 / 01060081919",
    "maps_url": "https://goo.gl/maps/1X7DTnD5ywfDA6d59",
    "lat":31.269646097155245, 
    "lng": 32.29735470613382
  },
  {
    "name": "ال جي بورسعيد",
    "address": "96 شارع 23 يوليو - بجوار مستشفى المبرة - بورسعيد",
    "district": "بورسعيد",
    "governorate": "بورسعيد",
    "phone": "0663253350 / 01278560441",
    "maps_url": "https://www.google.com/maps/place/LG/@30.824116,30.8188141,47m/data=!3m1!1e3!4m12!1m5!3m4!2s8G2GRRF9%2BJGW!8m2!3d30.8241125!4d30.8188281!3m5!1s0x14f5c5efd997fa17:0xc85a80c75e89fba4!8m2!3d30.8241052!4d30.8188842!16s%2Fg%2F11t74cq6tw!5m1!1e1?entry=ttu&g_ep=EgoyMDI1MDkwOC4wIKXMDSoASAFQAw%3D%3D",
    "lat": 30.824114252669066, 
    "lng": 30.818885821835636
  },
  {
    "name": "ال جي كفر الزيات",
    "address": "شارع الجيش - امام فرع فودافون - كفر الزيات",
    "district": "كفر الزيات",
    "governorate": "الغربية",
    "phone": "1099881589",
    "maps_url": "https://www.google.com/maps/place/LG/@30.8241384,30.8187476,47m/data=!3m1!1e3!4m12!1m5!3m4!2s8G2GRRF9%2BJGW!8m2!3d30.8241125!4d30.8188281!3m5!1s0x14f5c5efd997fa17:0xc85a80c75e89fba4!8m2!3d30.8241052!4d30.8188842!16s%2Fg%2F11t74cq6tw!5m1!1e1?entry=ttu&g_ep=EgoyMDI1MDkwOC4wIKXMDSoASAFQAw%3D%3D",
    "lat": 30.824116530830484, 
    "lng": 30.81888509694218
  },
{
  "name": "ال جي منيا القمح",
  "address": "مدينة منيا القمح - شارع سعد زغلول - امام مستشفى العاصمة",
  "district": "منيا القمح",
  "governorate": "الشرقية",
  "phone": "1102339472",
  "maps_url": "https://maps.app.goo.gl/DgVRUToQee4xchMy7",
  "lat":30.51995867131619, 
  "lng": 31.35380499030197 
}
,
{
  "name": "ال جي دمياط الجديدة",
  "address": "دمياط الجديدة - امام مول داون تاون لامار - بجوار مركز الايمان للاشعة - شارع الاستاد المركزي (ب)",
  "district": "دمياط الجديدة",
  "governorate": "دمياط",
  "phone": "01070904141 / 01070904142",
  "maps_url": "https://maps.app.goo.gl/aK3L5SApiQssmDCU9",
  "lat": 31.438684980798605,
  "lng": 31.67180087944573
}
,
  {
    "name": "ال جي شبين الكوم 2",
    "address": "شبين الكوم - شارع الكليات - بجوار المستشفى العسكري",
    "district": "شبين الكوم",
    "governorate": "المنوفية",
    "phone": "1103180965",
    "maps_url": "https://www.google.com/maps/place/LG/@31.4386558,31.6718864,47m/data=!3m1!1e3!4m12!1m5!3m4!2zMzHCsDI2JzE5LjMiTiAzMcKwNDAnMTguOSJF!8m2!3d31.438701!4d31.671926!3m5!1s0x14f9e3ce1f336769:0x878a9163eb1b83b3!8m2!3d31.4386772!4d31.6717986!16s%2Fg%2F11whwdj9mv!5m1!1e1?entry=ttu&g_ep=EgoyMDI1MDkwOC4wIKXMDSoASAFQAw%3D%3D",
    "lat": 31.43868669714507, 
    "lng": 31.671803959487352
  },
  {
    "name": "ال جي سوهاج",
    "address": "شارع اسيوط - امام مجمع المحاكم - سوهاج",
    "district": "سوهاج",
    "governorate": "سوهاج",
    "phone": "0932715599 / 01211677165",
    "maps_url": "https://goo.gl/maps/yMistEHM33Qwvavs7",
    "lat": 26.562417897965585, 
    "lng": 31.688255768736088
  },
  {
    "name": "ال جي المنيا 1",
    "address": "المنيا - بجوار ميدان بالاس - شارع الجمهورية - شركة أحمد شحاتة",
    "district": "المنيا",
    "governorate": "المنيا",
    "phone": "0862363496 / 01212180570 / 01004268505",
    "maps_url": "https://goo.gl/maps/ooyCVSXhWNNGskcS8",
    "lat": 28.09819982970378, 
    "lng":30.755733215780477
  },
  {
    "name": "ال جى الفيوم 1 - أحمد عطية",
    "address": "دوران منشية لطف الله - امام مسجد الشباب المسلمين - بجوار فرع فودافون القديم - احمد عطية - الفيوم",
    "district": "الفيوم",
    "governorate": "الفيوم",
    "phone": "0842178600 / 01016773200",
    "maps_url": "https://goo.gl/maps/kUDEhZW7CEJtJUpL7",
    "lat": 29.31259919391695,
    "lng":  30.839796229446403
  },
  {
    "name": "ال جى الفيوم 2 - المسلة - أحمد نصر",
    "address": "المسلة - 2 شارع جمال عبد الناصر - المنيا",
    "district": "المسلة",
    "governorate": "الفيوم",
    "phone": "01024840008 / 01019881848",
    "maps_url": "https://www.google.com/maps/place/LG/@29.3168135,30.8540908,48m/data=!3m1!1e3!4m12!1m5!3m4!2zMjnCsDE5JzAwLjQiTiAzMMKwNTEnMTQuNSJF!8m2!3d29.3167778!4d30.8540278!3m5!1s0x145979e9257633a1:0x2696ede8282dd912!8m2!3d29.3167802!4d30.8540798!16s%2Fg%2F11vpyyf1v2!5m1!1e1?authuser=0&entry=ttu&g_ep=EgoyMDI1MDkwOC4wIKXMDSoASAFQAw%3D%3D",
    "lat": 29.316789493434825, 
    "lng": 30.854082044935936
  },
  {
    "name": "ال جي اسيوط",
    "address": "ميدان اسماء الله الحسنى - برج البدراوي - امام قاعة هارون الرشيد - اسيوط",
    "district": "اسيوط",
    "governorate": "اسيوط",
    "phone": "0082130224 / 01065524307 / 01065524308",
    "maps_url": "https://goo.gl/maps/mAh8SSJH5BKfaCot5",
    "lat": 25.696249061931283, 
    "lng": 32.64367193376574
  },
  {
    "name": "ال جي الاقصر",
    "address": "شارع عبد المنعم العديسي - بجوار محطة قطار الاقصر - ومطعم توينكي - الاقصر",
    "district": "الاقصر",
    "governorate": "الاقصر",
    "phone": "1007010622",
    "maps_url": "https://www.google.com/maps/place/LG/@28.1067948,30.75208,48m/data=!3m1!1e3!4m12!1m5!3m4!2s7GWG4Q42%2BPVF!8m2!3d28.1068125!4d30.7521719!3m5!1s0x145b256018ecd795:0x49a6081086ad1b28!8m2!3d28.1068767!4d30.7521537!16s%2Fg%2F11jzwgkbg4!5m1!1e1?entry=ttu&g_ep=EgoyMDI1MDkwOC4wIKXMDSoASAFQAw%3D%3D",
    "lat":28.106884068401442, 
    "lng": 30.75215307427722
  },
  {
    "name": "ال جي المنيا 2",
    "address": "شارع طه حسين - سور نادي المنيا - امام قصر ثقافة المنيا - المنيا",
    "district": "المنيا",
    "governorate": "المنيا",
    "phone": "1033173335",
    "maps_url": "https://www.google.com/maps/place/LG/@28.1068604,30.7521162,48m/data=!3m1!1e3!4m12!1m5!3m4!2s7GWG4Q42%2BPVF!8m2!3d28.1068125!4d30.7521719!3m5!1s0x145b256018ecd795:0x49a6081086ad1b28!8m2!3d28.1068767!4d30.7521537!16s%2Fg%2F11jzwgkbg4!5m1!1e1?entry=ttu&g_ep=EgoyMDI1MDkwOC4wIKXMDSoASAFQAw%3D%3D",
    "lat": 28.106888441126237, 
    "lng":  30.752151636655974
  },
  {
    "name": "ال جي المنيا ٢",
    "address": "شارع طه حسين سور نادى المنيا الرياضى امام قصر ثقافه المنيا",
    "district": "المنيا",
    "governorate": "المنيا",
    "phone": "01033173335",
    "maps_url": "https://www.google.com/maps/place/LG/@28.1067747,30.7521018,59m/data=!3m1!1e3!4m12!1m5!3m4!2s7GWG4Q42%2BPVF!8m2!3d28.1068125!4d30.7521719!3m5!1s0x145b256018ecd795:0x49a6081086ad1b28!8m2!3d28.1068767!4d30.7521537!16s%2Fg%2F11jzwgkbg4!5m1!1e1?entry=ttu&g_ep=EgoyMDI1MDkwOC4wIKXMDSoASAFQAw%3D%3D",
    "lat": 28.106892193211046,
  
    "lng": 30.752151619382044
  },
  {
    "name": "ال جي بنى سويف",
    "address": "96 شارع 23 يوليو بجوار منتزه بدر",
    "district": "بنى سويف",
    "governorate": "بنى سويف",
    "phone": "01069050500 - 0822126664",
    "maps_url": "https://www.google.com/maps/place/%D8%A7%D9%84+%D8%AC%D9%89+%D8%A8%D9%86%D9%89+%D8%B3%D9%88%D9%8A%D9%81+%D8%A8%D8%A7%D8%B3%D9%85+%D8%B3%D8%AA%D9%88%D8%B1+LG+Beni+Suef%E2%80%AD/@29.0758584,31.103002,48m/data=!3m1!1e3!4m12!1m5!3m4!2s7GXH34G3%2B96!8m2!3d29.0759375!4d31.1030625!3m5!1s0x145a27712494c8a5:0x8bb69de64b083fad!8m2!3d29.0759204!4d31.1030109!16s%2Fg%2F11h94mc8wx!5m1!1e1?entry=ttu&g_ep=EgoyMDI1MDkwOC4wIKXMDSoASAFQAw%3D%3D",
    "lat": 29.075941016280936, 
    "lng": 31.10300671933528
  },
  {
    "name": "ال جي قنا",
    "address": "قنا ميدان الدولفن امتداد طريق الكورنيش قبل كوبرى دندره",
    "district": "قنا",
    "governorate": "قنا",
    "phone": "01008887617 - 01117772613",
    "maps_url": "https://maps.app.goo.gl/FYYhDHAW2X1QvY8f6",
    "lat": 26.155923367759154, 
    "lng": 32.705679209516894
  },
  {
    "name": "ال جي أسيوط 2",
    "address": "اسيوط، شارع الجمهوريه برج سما بجوار بنك القاهرة",
    "district": "اسيوط",
    "governorate": "اسيوط",
    "phone": "01280769096",
    "maps_url": "https://maps.app.goo.gl/swabFUQ1JGJEqVu86",
    "lat": 27.18542273660644, 
    "lng": 31.185880658895346
  }

]